{
	"type":"FeatureCollection",
	"crs": { "type": "name", "properties": { "name": "urn:ogc:def:crs:OGC:1.3:CRS84" } },
	"features":[

		{
			"type":"feature",
			"geometry":{ "type": "Point", "coordinates": [141.45083, 42.97472]},
			"properties":{"type":"雨量","name":"清田","address":"北海道札幌市清田区真栄235-1"}
		},
		{
			"type":"feature",
			"geometry":{ "type": "Point", "coordinates": [141.37055, 42.91888]},
			"properties":{"type":"雨量","name":"滝野","address":"北海道札幌市南区滝野102番地"}
		},
		{
			"type":"feature",
			"geometry":{ "type": "Point", "coordinates": [141.38611, 43.03166]},
			"properties":{"type":"雨量","name":"望月寒川","address":"北海道札幌市豊平区美園11条8丁目月寒公園内河川敷"}
		},
		{
			"type":"feature",
			"geometry":{ "type": "Point", "coordinates": [141.32416, 42.90694]},
			"properties":{"type":"雨量","name":"真駒内","address":"北海道札幌市南区常盤"}
		},
		{
			"type":"feature",
			"geometry":{ "type": "Point", "coordinates": [141.34916, 42.9866]},
			"properties":{"type":"雨量","name":"真駒内橋","address":"北海道札幌市南区真駒内泉町1丁目6番地"}
		},
		{
			"type":"feature",
			"geometry":{ "type": "Point", "coordinates": [141.47888,43.11444]},
			"properties":{"type":"雨量","name":"厚別","address":"北海道江別市元野幌1107-1"}
		},
		{
			"type":"feature",
			"geometry":{ "type": "Point", "coordinates": [141.31638,42.9658]},
			"properties":{"type":"雨量","name":"豊平川","address":"北海道札幌市南区石山1条7丁目26番地"}
		},

		{
			"type":"feature",
			"geometry":{ "type": "Point", "coordinates": [141.38611, 43.03166]},
			"properties":{"type":"水位","name":"望月寒川","address":"北海道札幌市豊平区美園11条8丁目月寒公園内河川敷"}
		},
		{
			"type":"feature",
			"geometry":{ "type": "Point", "coordinates": [141.34916, 42.9866]},
			"properties":{"type":"水位","name":"真駒内橋","address":"北海道札幌市南区真駒内泉町1丁目6番地"}
		},
		{
			"type":"feature",
			"geometry":{ "type": "Point", "coordinates": [141.47888,43.11444]},
			"properties":{"type":"水位","name":"厚別","address":"北海道江別市元野幌1131番地"}
		},
		{
			"type":"feature",
			"geometry":{ "type": "Point", "coordinates": [141.425157,43.074395]},
			"properties":{"type":"水位","name":"望月寒","address":"北海道札幌市白石区北郷2402-3"}
		},
		{
			"type":"feature",
			"geometry":{ "type": "Point", "coordinates": [141.365763,43.000313]},
			"properties":{"type":"水位","name":"精進川","address":"北海道札幌市南区澄川4条10丁目454番地"}
		},
		{
			"type":"feature",
			"geometry":{ "type": "Point", "coordinates": [141.431557,43.057312]},
			"properties":{"type":"水位","name":"月寒","address":"北海道札幌市白石区北郷5条10丁目2374番地"}
		},
		{
			"type":"feature",
			"geometry":{ "type": "Point", "coordinates": [141.431540,43.040786]},
			"properties":{"type":"水位","name":"月寒川","address":"北海道札幌市白石区平和通14丁目南5番地"}
		},
		{
			"type":"feature",
			"geometry":{ "type": "Point", "coordinates": [141.401473,43.070988]},
			"properties":{"type":"水位","name":"雁来","address":"北海道札幌市白石区菊水元町3条1丁目24番地"}
		},
		{
			"type":"feature",
			"geometry":{ "type": "Point", "coordinates": [141.263466,42.956873]},
			"properties":{"type":"水位","name":"簾舞","address":"北海道札幌市南区簾舞400-8"}
		}
	]
}
